City_ID,City,Lat,Lng,Max Temp,Humidity,Cloudiness,Wind Speed,Country,Date
0,tiksi,71.6872,128.8694,-17.55,100,100,2.58,RU,1698368436
1,adamstown,-25.066,-130.1015,22.86,77,65,3.11,PN,1698368437
2,waitangi,-43.9535,-176.5597,13.79,76,100,7.6,NZ,1698368437
3,emerald,-23.5333,148.1667,24.08,13,0,4.89,AU,1698368438
4,badger,64.8,-147.5333,-0.57,84,40,0.0,US,1698368439
5,guerrero negro,27.9769,-114.0611,18.95,73,0,7.07,MX,1698368150
6,college,64.8569,-147.8028,-0.52,84,40,0.0,US,1698368439
7,kolonia,50.9333,6.95,11.03,91,75,2.57,DE,1698368409
8,tan-tan,28.438,-11.1032,20.48,85,0,5.15,MA,1698368440
9,nongpoh,25.9,91.8833,18.76,95,0,0.87,IN,1698368440
10,kirensk,57.7853,108.1119,1.65,96,100,4.92,RU,1698368440
11,kyabe,9.4515,18.9449,22.02,89,100,1.07,TD,1698368440
12,zeya,53.75,127.2667,-0.96,45,0,1.44,RU,1698368441
13,la passe,45.5549,-0.8967,15.55,78,17,9.35,FR,1698368441
14,atafu village,-8.5421,-172.5159,28.82,77,100,6.07,TK,1698368441
15,northam,51.0333,-4.2167,12.59,97,100,7.35,GB,1698368441
16,edson,53.5835,-116.4356,-4.92,86,100,3.09,CA,1698368441
17,port mathurin,-19.6833,63.4167,24.53,74,100,5.33,MU,1698368441
18,oneonta,42.4529,-75.0638,17.38,92,100,2.35,US,1698368361
19,olonkinbyen,70.9221,-8.7187,-0.63,72,60,1.55,SJ,1698368442
20,labasa,-16.4167,179.3833,27.56,71,100,7.96,FJ,1698368442
21,helena valley southeast,46.6153,-111.9216,-7.63,91,19,0.61,US,1698368442
22,port-aux-francais,-49.35,70.2167,2.17,80,6,7.18,TF,1698368442
23,bredasdorp,-34.5322,20.0403,14.09,77,100,2.58,ZA,1698368442
24,yellowknife,62.456,-114.3525,-2.62,77,75,3.6,CA,1698368443
25,puerto ayora,-0.7393,-90.3518,24.19,90,5,3.13,EC,1698368443
26,tekkali,18.6167,84.2333,21.6,86,7,1.99,IN,1698368443
27,kodiak,57.79,-152.4072,6.48,80,98,5.76,US,1698368443
28,lincoln,40.8,-96.667,16.5,90,75,5.14,US,1698368276
29,kerikeri,-35.2268,173.9474,16.62,91,100,0.45,NZ,1698368443
30,cabo san lucas,22.8909,-109.9124,25.66,69,0,3.66,MX,1698368392
31,nar'yan-mar,67.6713,53.087,-11.61,100,58,1.79,RU,1698368444
32,ribeira grande,38.5167,-28.7,19.11,61,100,6.89,PT,1698368444
33,longyearbyen,78.2186,15.6401,-4.09,86,100,4.12,SJ,1698368444
34,isangel,-19.55,169.2667,30.06,74,40,3.09,VU,1698368444
35,grytviken,-54.2811,-36.5092,1.45,98,100,4.03,GS,1698368444
36,anadyr,64.75,177.4833,0.28,93,75,3.0,RU,1698368445
37,chilecito,-29.1619,-67.4974,18.93,61,0,5.9,AR,1698368445
38,keflavik,64.0049,-22.5624,6.24,93,0,1.03,IS,1698368445
39,ortigueira,-24.2083,-50.9494,19.28,98,100,1.53,BR,1698368445
40,saipan,15.1355,145.701,30.39,79,40,4.12,MP,1698368445
41,domanivka,47.6319,30.9885,14.61,75,71,4.3,UA,1698368446
42,lycksele,64.5954,18.6735,-6.07,93,100,0.0,SE,1698368446
43,dudinka,69.4058,86.1778,-12.96,99,58,1.34,RU,1698368446
44,punta arenas,-53.15,-70.9167,4.06,70,40,2.57,CL,1698368446
45,pervomayskoye,43.919,46.7102,16.11,87,100,2.07,RU,1698368446
46,edinburgh of the seven seas,-37.0676,-12.3116,12.6,66,100,7.84,SH,1698368446
47,zhosaly,45.4878,64.0781,2.83,42,100,3.37,KZ,1698368447
48,livingston,55.9029,-3.5226,10.45,90,100,3.6,GB,1698368447
49,genhe,50.7833,121.5167,0.52,42,1,1.36,CN,1698368447
50,uttar char fasson,22.2332,90.7132,23.36,86,0,3.18,BD,1698368447
51,thompson,55.7435,-97.8558,-1.91,46,100,3.6,CA,1698368447
52,as saffaniyah,27.9708,48.73,22.06,52,0,3.57,SA,1698368447
53,ludington,43.9553,-86.4526,17.67,95,75,6.69,US,1698368447
54,lihue,21.9789,-159.3672,23.74,91,100,1.05,US,1698368448
55,jamestown,42.097,-79.2353,19.45,61,0,3.6,US,1698368405
56,westport,41.1415,-73.3579,20.1,74,0,1.54,US,1698368313
57,petropavlovsk-kamchatsky,53.0452,158.6483,5.33,59,0,3.0,RU,1698368448
58,richards bay,-28.783,32.0377,18.79,84,6,4.61,ZA,1698368448
59,mareeba,-17.0,145.4333,31.36,41,9,3.51,AU,1698368448
60,san andres,12.5847,-81.7006,28.01,89,20,1.03,CO,1698368449
61,chonchi,-42.6128,-73.8092,10.07,89,100,2.98,CL,1698368449
62,bor,56.3567,44.0669,0.0,81,100,4.98,RU,1698368449
63,constantia,44.1833,28.65,14.38,69,8,3.13,RO,1698368408
64,rongelap,11.1635,166.8941,27.93,69,15,5.18,MH,1698368449
65,rondonopolis,-16.4708,-54.6356,26.71,63,100,0.86,BR,1698368330
66,inarajan village,13.2736,144.7484,30.08,93,100,2.87,GU,1698368449
67,puerto natales,-51.7236,-72.4875,1.94,92,100,2.07,CL,1698368449
68,zhaotong,27.3167,103.7167,8.08,95,100,1.81,CN,1698368443
69,ancud,-41.8697,-73.8203,10.66,85,100,8.2,CL,1698368421
70,kununurra,-15.7667,128.7333,31.99,12,69,6.17,AU,1698368450
71,coquimbo,-29.9533,-71.3436,13.85,76,75,3.6,CL,1698368450
72,blackmans bay,-43.0167,147.3167,12.63,58,23,2.77,AU,1698368450
73,inongo,-1.95,18.2667,21.05,94,100,1.22,CD,1698368450
74,tomatlan,19.9333,-105.25,24.12,88,58,1.14,MX,1698368451
75,hasaki,35.7333,140.8333,22.38,53,8,4.07,JP,1698368452
76,iqaluit,63.7506,-68.5145,-3.15,73,100,3.6,CA,1698368415
77,howard springs,-12.497,131.047,32.71,67,6,1.35,AU,1698368452
78,hamilton,39.1834,-84.5333,21.65,70,99,2.68,US,1698368438
79,homer,59.6425,-151.5483,5.98,72,0,0.45,US,1698368327
80,papao,-17.75,-149.55,26.82,88,100,1.27,PF,1698368453
81,avarua,-21.2078,-159.775,23.03,60,75,5.66,CK,1698368453
82,shingu,33.7333,135.9833,22.49,46,0,2.33,JP,1698368453
83,kande,9.9578,1.0447,25.44,55,87,1.63,TG,1698368453
84,whitehorse,60.7161,-135.0538,-2.57,74,75,3.09,CA,1698368453
85,bethel,41.3712,-73.414,19.32,72,100,0.45,US,1698368454
86,ilulissat,69.2167,-51.1,-0.99,55,17,6.69,GL,1698368454
87,luanda,-8.8368,13.2343,25.0,78,75,3.09,AO,1698368409
88,zouerate,22.7187,-12.4521,24.34,24,0,3.58,MR,1698368454
89,stanley,54.868,-1.6985,9.18,94,75,3.09,GB,1698368454
90,bontang,0.1333,117.5,29.23,69,100,0.53,ID,1698368454
91,armacao de buzios,-22.7469,-41.8817,23.03,99,100,0.46,BR,1698368454
92,labytnangi,66.6572,66.4183,-9.85,87,100,2.55,RU,1698368422
93,pisco,-13.7,-76.2167,20.03,83,100,4.63,PE,1698368455
94,margaret river,-33.95,115.0667,15.07,48,64,5.82,AU,1698368455
95,aasiaat,68.7098,-52.8699,-5.78,84,97,3.89,GL,1698368455
96,ushuaia,-54.8,-68.3,2.81,60,0,3.09,AR,1698368455
97,hawaiian paradise park,19.5933,-154.9731,27.73,81,100,3.09,US,1698368343
98,kargasok,59.0556,80.8572,-3.91,87,100,8.49,RU,1698368455
99,vilyuchinsk,52.9306,158.4028,6.15,59,6,1.21,RU,1698368456
100,vorgashor,67.5833,63.95,-9.68,95,100,4.17,RU,1698368456
101,alofi,-19.0595,-169.9187,25.94,61,75,9.26,NU,1698368456
102,labrador city,52.9463,-66.9114,-2.05,69,40,1.54,CA,1698368456
103,kapuskasing,49.4169,-82.4331,1.05,93,100,5.14,CA,1698368409
104,papatowai,-46.5619,169.4708,4.91,81,100,5.78,NZ,1698368456
105,isafjordur,66.0755,-23.124,5.89,83,8,4.78,IS,1698368456
106,ilebo,-4.3167,20.5833,20.87,99,100,0.89,CD,1698368457
107,casper,42.8666,-106.3131,-7.93,83,40,2.06,US,1698368284
108,bhikangaon,21.8667,75.95,19.77,46,5,0.92,IN,1698368457
109,outjo,-20.1167,16.15,20.03,34,55,5.31,NA,1698368457
110,pindushi,62.9152,34.58,-2.71,88,100,1.53,RU,1698368457
111,albany,42.6001,-73.9662,17.9,78,100,1.56,US,1698368189
112,wailua homesteads,22.0669,-159.378,23.4,91,100,0.89,US,1698368457
113,diamantino,-14.4086,-56.4461,23.63,87,100,1.45,BR,1698368364
114,georgetown,5.4112,100.3354,27.75,89,20,1.54,MY,1698368458
115,cameron,26.117,-97.5169,29.08,84,11,2.68,US,1698368458
116,arkalyk,50.2486,66.9114,-2.93,58,6,2.24,KZ,1698368458
117,geraldton,-28.7667,114.6,19.23,45,5,11.32,AU,1698368221
118,douz,33.4663,9.0203,20.84,42,0,4.29,TN,1698368168
119,dabakala,8.3667,-4.4333,24.81,86,11,2.44,CI,1698368459
120,kaa-khem,51.6833,94.7333,4.67,46,100,0.71,RU,1698368459
121,lucheng,31.2336,117.2806,21.58,60,100,2.02,CN,1698368459
122,fort bragg,35.139,-79.006,19.52,88,0,0.0,US,1698368455
123,sitka,57.0531,-135.33,5.1,67,0,1.17,US,1698368459
124,aldinga beach,-35.2793,138.4604,19.86,63,11,3.75,AU,1698368459
125,arkhangel'sk,64.5401,40.5433,-1.04,83,100,2.03,RU,1698368166
126,rio grande,-32.035,-52.0986,12.06,79,0,2.39,BR,1698368459
127,pangody,65.85,74.4859,-12.73,95,86,4.77,RU,1698368459
128,praia da vitoria,38.7333,-27.0667,16.53,88,20,4.04,PT,1698368460
129,deqen,29.9618,90.7188,1.96,33,0,0.24,CN,1698368460
130,tshabong,-26.05,22.45,23.96,13,86,3.06,BW,1698368460
131,wuhai,39.6647,106.8122,12.89,31,0,2.65,CN,1698368460
132,ilhabela,-23.7781,-45.3581,20.5,97,100,1.54,BR,1698368460
133,fisterra,42.9049,-9.2629,15.97,70,9,13.33,ES,1698368460
134,welkom,-27.9864,26.7066,20.2,29,6,2.77,ZA,1698368461
135,ta`u,-14.2336,-169.5144,26.37,80,100,7.71,AS,1698368461
136,port alfred,-33.5906,26.891,17.32,90,6,3.13,ZA,1698368461
137,kenai,60.5544,-151.2583,5.05,67,0,0.0,US,1698368461
138,polyarnyy,69.1989,33.4478,-4.11,95,100,2.83,RU,1698368462
139,nagato,34.3833,131.2,20.7,68,11,10.2,JP,1698368462
140,udachny,66.4167,112.4,-19.94,100,100,1.3,RU,1698368462
141,mugia,43.1041,-9.2179,16.06,73,11,13.48,ES,1698368462
142,cole harbour,44.6724,-63.4751,13.66,94,52,1.03,CA,1698368462
143,lompoc,34.6391,-120.4579,18.08,73,20,9.83,US,1698368404
144,taoudenni,22.6783,-3.9836,29.91,20,0,4.97,ML,1698368463
145,happy valley-goose bay,53.3168,-60.3315,1.17,75,20,5.66,CA,1698368463
146,kapa'a,22.0752,-159.319,24.15,80,100,0.89,US,1698368463
147,paita,-5.0892,-81.1144,19.24,90,99,7.18,PE,1698368463
148,el calafate,-50.3408,-72.2768,6.08,57,100,1.8,AR,1698368463
149,topolobampo,25.6,-109.05,25.48,63,0,4.07,MX,1698368464
150,newman,37.3138,-121.0208,18.34,48,22,0.89,US,1698368464
151,puerto el triunfo,13.2833,-88.55,26.77,84,100,1.74,SV,1698368464
152,codrington,-38.2667,141.9667,16.73,42,11,3.66,AU,1698368464
153,ola,59.5833,151.2833,-2.83,61,100,1.86,RU,1698368464
154,tazovsky,67.4667,78.7,-13.02,94,83,6.04,RU,1698367946
155,north bend,43.4065,-124.2243,12.95,62,0,4.63,US,1698368307
156,galesong,-5.3166,119.3661,30.01,50,7,1.53,ID,1698368465
157,alamos,27.0167,-108.9333,22.29,51,0,0.91,MX,1698368400
158,port elizabeth,-33.918,25.5701,17.16,88,75,11.32,ZA,1698368465
159,idabel,33.8957,-94.8263,20.31,76,100,3.09,US,1698368465
160,aquiraz,-3.9014,-38.3911,28.91,78,17,4.58,BR,1698368465
161,warman,52.3168,-106.5679,-3.05,58,100,6.17,CA,1698368466
162,murrells inlet,33.551,-79.0414,20.03,93,91,3.66,US,1698368466
163,shitanjing,39.2342,106.3439,11.7,32,2,1.65,CN,1698368466
164,cururupu,-1.8283,-44.8683,25.88,71,36,2.3,BR,1698368466
165,sisimiut,66.9395,-53.6735,-3.52,84,100,4.93,GL,1698368466
166,st. john's,47.5649,-52.7093,9.53,89,100,3.6,CA,1698368298
167,iwaki,37.05,140.8833,20.01,62,96,0.45,JP,1698368467
168,cambrai,50.1667,3.4167,10.68,95,100,0.99,FR,1698368467
169,phalodi,27.1333,72.3667,25.12,28,5,4.29,IN,1698368467
170,igarka,67.4667,86.5833,-10.17,86,23,7.89,RU,1698368467
171,blackwater,-23.5833,148.8833,24.27,20,0,5.12,AU,1698368467
172,mount gambier,-37.8333,140.7667,17.06,36,47,2.57,AU,1698368468
173,illizi,26.4833,8.4667,21.89,28,0,2.51,DZ,1698368468
174,sola,-13.8833,167.55,30.37,79,40,2.06,VU,1698368468
175,mount pearl,47.5166,-52.7813,9.07,88,100,3.6,CA,1698368468
176,tsiroanomandidy,-18.7667,46.0333,20.28,69,0,1.41,MG,1698368468
177,murzuq,25.9155,13.9184,23.78,30,0,2.66,LY,1698368468
178,qacha's nek,-30.1154,28.6894,15.39,20,20,2.71,LS,1698368468
179,sergeyevka,53.88,67.4158,-3.47,76,9,5.44,KZ,1698368469
180,broome,42.2506,-75.833,18.43,84,100,0.45,US,1698368469
181,general pico,-35.6566,-63.7568,13.8,93,100,1.45,AR,1698368469
182,hadibu,12.65,54.0333,26.38,83,100,4.18,YE,1698368469
183,prince rupert,54.3161,-130.3201,10.05,35,0,8.23,CA,1698368469
184,colares,38.7992,-9.4469,18.2,83,100,5.81,PT,1698368469
185,namtsy,62.7161,129.6658,-10.51,91,69,1.69,RU,1698368470
186,saint-joseph,-21.3667,55.6167,22.21,86,24,2.18,RE,1698368470
187,desaguadero,-16.5656,-69.0417,12.71,55,100,2.22,PE,1698368470
188,kruisfontein,-34.0033,24.7314,14.8,85,5,6.67,ZA,1698368470
189,mirador,-6.3708,-44.3631,28.24,43,43,0.94,BR,1698368470
190,elk city,35.412,-99.4043,22.12,53,0,7.72,US,1698368232
191,ust'-ilimsk,58.0006,102.6619,5.8,77,100,4.47,RU,1698368471
192,nemuro,43.3236,145.575,11.91,78,96,2.41,JP,1698368471
193,okhotsk,59.3833,143.3,-2.43,95,100,6.21,RU,1698368471
194,mantua,45.1667,10.7833,16.86,90,100,3.13,IT,1698368471
195,puerto leguizamo,-0.1934,-74.7819,24.66,86,88,1.19,CO,1698368471
196,greymouth,-42.4667,171.2,10.25,44,28,9.97,NZ,1698368471
197,talnakh,69.4865,88.3972,-13.77,94,22,1.02,RU,1698368363
198,utrik,11.2278,169.8474,28.27,77,76,5.41,MH,1698368472
199,dwarka,22.2394,68.9678,26.5,72,0,4.01,IN,1698368472
200,mana,5.6592,-53.7767,26.44,83,34,4.96,GF,1698368472
201,federal,-30.9547,-58.7833,15.59,73,0,2.63,AR,1698368472
202,santa comba dao,40.3986,-8.1316,13.73,84,75,0.89,PT,1698368473
203,waddan,29.1614,16.139,21.56,58,0,2.39,LY,1698368473
204,hithadhoo,-0.6,73.0833,27.22,78,3,8.35,MV,1698368473
205,ust-tsilma,65.441,52.1498,-6.88,100,100,0.89,RU,1698368473
206,invercargill,-46.4,168.35,4.45,78,97,11.18,NZ,1698368473
207,qaqortoq,60.7167,-46.0333,0.0,51,51,2.49,GL,1698368473
208,valparaiso,-33.0393,-71.6273,10.8,76,0,2.57,CL,1698368424
209,ad dilam,23.9915,47.1627,23.23,56,0,3.09,SA,1698368474
210,west island,-12.1568,96.8225,26.99,78,100,9.26,CC,1698368474
211,levin,-40.6333,175.275,14.28,62,35,7.61,NZ,1698368474
212,ust-nera,64.5667,143.2,-16.48,85,100,1.16,RU,1698368474
213,gereida,11.2811,25.1414,24.35,74,100,4.54,SD,1698368474
214,peniche,39.3558,-9.3811,18.09,87,100,7.22,PT,1698368475
215,ciudad lazaro cardenas,17.9583,-102.2,26.21,86,39,3.24,MX,1698368475
216,nova sintra,14.8667,-24.7167,24.91,79,100,8.49,CV,1698368475
217,touros,-5.1989,-35.4608,27.3,67,98,5.27,BR,1698368379
218,east london,-33.0153,27.9116,18.54,83,77,9.18,ZA,1698368475
219,montevideo,-34.8335,-56.1674,16.84,63,0,3.09,UY,1698368381
220,edd,13.9297,41.6925,29.85,60,100,3.91,ER,1698368476
221,oak bay,48.4496,-123.3026,9.67,63,20,2.57,CA,1698368476
222,mach,29.8637,67.3298,20.76,22,95,2.83,PK,1698368476
223,mitsamiouli,-11.3847,43.2844,26.03,82,7,4.82,KM,1698368476
224,tatarsk,55.219,75.9828,-3.54,70,100,9.01,RU,1698368476
225,krasnogorskoye,52.2953,86.1979,0.05,70,87,6.21,RU,1698368476
226,argo,37.6333,22.7333,17.66,78,100,1.66,GR,1698368393
227,kailua-kona,19.6406,-155.9956,29.17,76,55,2.68,US,1698368393
228,whakatane,-37.9585,176.9854,17.51,75,100,3.58,NZ,1698368477
229,saldanha,-33.0117,17.9442,11.03,88,100,1.7,ZA,1698368477
230,harstad,68.799,16.5293,2.56,97,99,3.58,NO,1698368477
231,nieuw amsterdam,5.8833,-55.0833,29.09,80,0,1.03,SR,1698368477
232,kristiansund,63.1115,7.732,1.36,75,6,1.54,NO,1698368478
233,uturoa,-16.7333,-151.4333,24.3,90,100,4.91,PF,1698368478
234,amga,60.8953,131.9608,-9.57,92,99,0.46,RU,1698368479
235,port saint john's,-31.6229,29.5448,20.67,84,8,3.68,ZA,1698368479
236,west fargo,46.875,-96.9004,3.0,92,100,8.23,US,1698368480
237,tual,-5.6667,132.75,26.57,76,65,6.97,ID,1698368480
238,san pedro pochutla,15.7333,-96.4667,24.55,89,100,2.04,MX,1698368480
239,ad dawadimi,24.5077,44.3924,21.64,60,26,4.01,SA,1698368480
240,saynshand,44.8824,110.1163,7.94,31,6,3.17,MN,1698368480
241,remire-montjoly,4.9167,-52.2667,27.02,89,0,3.09,GF,1698368480
242,dalandzadgad,43.5708,104.425,9.34,27,0,2.95,MN,1698368481
243,novyy urengoy,66.0833,76.6333,-10.47,85,100,6.83,RU,1698368481
244,sabang,5.8933,95.3214,27.12,76,100,3.16,ID,1698368481
245,istgah-e rah ahan-e garmsar,35.2346,52.3094,19.3,30,90,1.53,IR,1698368481
246,aladag,37.5485,35.396,17.21,45,100,2.0,TR,1698368481
247,portland,45.5234,-122.6762,9.96,85,40,1.54,US,1698367865
248,acarau,-2.8856,-40.12,25.47,78,2,6.03,BR,1698368481
249,bilibino,68.0546,166.4372,-16.47,97,83,1.05,RU,1698368482
250,rosarito,32.3333,-117.0333,20.82,82,0,3.81,MX,1698368408
251,santa elena de uairen,4.6167,-61.1333,20.62,89,88,1.18,VE,1698368482
252,liwale,-9.7667,37.9333,21.11,88,57,1.17,TZ,1698368482
253,dolores,-36.3132,-57.6792,13.72,51,0,4.17,AR,1698368483
254,tocopilla,-22.092,-70.1979,17.48,67,18,1.29,CL,1698368483
255,mwene-ditu,-7.0,23.45,18.3,91,100,2.44,CD,1698368484
256,saudarkrokur,65.7461,-19.6394,0.79,85,81,2.42,IS,1698368241
257,noshiro,40.2039,140.0242,10.46,90,100,3.23,JP,1698368484
258,crane,31.3974,-102.3501,23.48,39,0,2.38,US,1698368484
259,sherbakul',54.6316,72.3963,-3.21,70,63,7.98,RU,1698368485
260,san patricio,28.017,-97.5169,28.92,84,100,5.17,US,1698368486
261,phu khiao,16.3765,102.1285,24.91,88,100,0.4,TH,1698368486
262,robore,-18.3333,-59.75,25.76,69,63,1.74,BO,1698368486
263,tselina,46.5338,41.0328,15.05,90,100,3.45,RU,1698368486
264,khash,28.2211,61.2158,19.67,41,99,2.2,IR,1698368486
265,yuzhno-kurilsk,44.0306,145.8556,11.32,87,98,2.68,RU,1698368487
266,khorixas,-20.3667,14.9667,19.29,45,100,1.67,NA,1698368487
267,iskateley,67.6803,53.1512,-11.66,100,43,1.79,RU,1698368487
268,kuanda,56.3161,116.0806,-2.18,48,71,0.5,RU,1698368487
269,nouadhibou,20.931,-17.0347,22.99,73,75,6.17,MR,1698368488
270,eyl,7.9803,49.8164,26.49,84,34,4.49,SO,1698368488
271,ouro preto do oeste,-10.7481,-62.2158,27.82,59,99,2.16,BR,1698368488
272,road town,18.4167,-64.6167,28.05,78,20,3.09,VG,1698368213
273,manokwari,-0.8667,134.0833,28.19,73,100,2.36,ID,1698368489
274,sagauli,26.7833,84.7333,21.17,73,0,0.94,IN,1698368489
275,fairfield,41.2668,-73.3162,20.03,73,0,1.54,US,1698368191
276,huntsville,34.7304,-86.5861,23.14,64,0,3.13,US,1698368265
277,garachico,28.7781,-17.7646,20.06,64,0,3.09,ES,1698368490
278,mananara,-16.1667,49.7667,22.34,94,99,0.85,MG,1698368490
279,cockburn town,21.4612,-71.1419,28.03,68,3,10.05,TC,1698368490
280,brookings,44.3114,-96.7984,6.36,100,100,4.12,US,1698368063
281,fortaleza,-3.7227,-38.5247,28.93,76,20,3.09,BR,1698368326
282,rudbar,30.15,62.6,23.63,27,100,1.72,AF,1698368211
283,ialibu,-6.2821,143.9935,17.49,86,95,1.86,PG,1698368490
284,viqueque,-8.8673,126.3658,31.31,47,5,2.76,TL,1698368491
285,novodvinsk,64.4165,40.8122,-1.23,83,100,1.91,RU,1698368491
286,pasighat,28.0667,95.3333,19.76,92,0,1.22,IN,1698368491
287,oskarshamn,57.2645,16.4484,5.55,85,100,4.2,SE,1698368491
288,magadan,59.5667,150.8,-2.88,70,100,2.31,RU,1698368491
289,brisas de zicatela,15.8369,-97.0419,26.97,84,100,2.71,MX,1698368491
290,qusmuryn,52.4503,64.6311,-2.27,72,0,3.29,KZ,1698368492
291,weno,7.4515,151.8468,27.96,78,56,5.72,FM,1698368492
292,medina,24.4686,39.6142,25.24,57,0,2.57,SA,1698368419
293,mahmudabad,27.3,81.1167,19.5,58,0,1.82,IN,1698368197
294,minas de marcona,-15.2119,-75.1103,14.86,85,100,3.77,PE,1698368492
295,apolinario saravia,-24.4328,-63.9954,17.79,95,100,2.0,AR,1698368492
296,klyuchi,52.2667,79.1667,-1.27,63,8,6.75,RU,1698368492
297,susuman,62.7833,148.1667,-17.79,90,100,0.89,RU,1698368493
298,pimenta bueno,-11.6725,-61.1936,25.71,77,96,0.93,BR,1698368493
299,nadym,65.5333,72.5167,-9.6,92,99,3.25,RU,1698368493
300,santa ana,33.7456,-117.8678,23.01,69,20,4.12,US,1698368203
301,janakkala,60.9,24.6,-2.34,86,100,2.92,FI,1698368494
302,port hedland,-20.3167,118.5667,33.03,19,81,5.66,AU,1698368494
303,fandrandava,-21.5208,47.2453,17.14,96,100,1.31,MG,1698368494
304,dunedin,-45.8742,170.5036,7.67,52,55,3.58,NZ,1698368494
305,yelizovo,53.1873,158.3805,6.08,56,0,3.13,RU,1698368494
306,mili,6.0815,171.735,29.02,74,100,5.72,MH,1698368495
307,mandalgovi,45.7625,106.2708,5.48,34,7,3.57,MN,1698368495
308,nagqu,31.5,92.0,-5.0,88,38,0.79,CN,1698368495
309,ermoupolis,37.4423,24.9425,21.61,88,3,4.12,GR,1698368495
310,kembe,4.6228,21.8865,19.44,98,98,1.08,CF,1698368495
311,huarmey,-10.0681,-78.1522,19.74,82,76,3.5,PE,1698368496
312,bubaque,11.2833,-15.8333,28.0,79,17,6.28,GW,1698368496
313,sambava,-14.2667,50.1667,22.82,88,100,1.5,MG,1698368496
314,lazaro cardenas,17.9583,-102.2,26.21,86,39,3.24,MX,1698368378
315,carapicuiba,-23.5534,-46.8485,20.09,93,100,0.89,BR,1698368496
316,kolonia town,6.964,158.206,28.54,72,91,1.47,FM,1698368496
317,lebu,-37.6167,-73.65,10.03,95,47,2.99,CL,1698368497
318,plettenberg bay,-34.0527,23.3716,15.06,74,3,3.94,ZA,1698368497
319,sona,45.4388,10.8255,16.03,94,40,2.06,IT,1698368497
320,mount isa,-20.7333,139.5,25.87,11,40,6.17,AU,1698368471
321,tralee,52.2704,-9.7026,8.32,96,47,2.5,IE,1698368497
322,robinson,31.4677,-97.1147,25.46,92,0,4.63,US,1698368497
323,bafang,5.1563,10.1788,16.43,94,99,1.14,CM,1698368498
324,lensk,60.7253,114.9278,0.88,98,100,1.55,RU,1698368498
325,plastun,44.7561,136.2939,9.41,35,5,3.59,RU,1698368498
326,san martin de los andes,-40.1604,-71.3486,6.67,89,98,2.96,AR,1698368214
327,el granada,37.5027,-122.4694,17.48,64,0,9.26,US,1698368498
328,priob'ye,62.5206,65.5964,-4.47,80,96,2.64,RU,1698368498
329,tolanaro,-25.0319,46.9987,20.04,88,40,0.0,MG,1698368499
330,canico,32.6333,-16.85,22.62,85,40,0.0,PT,1698368499
331,mermoz boabab,14.7065,-17.4758,27.88,94,0,2.06,SN,1698368499
332,zhangye,38.9342,100.4517,11.73,23,1,1.64,CN,1698368499
333,changzhi,35.2089,111.7386,18.1,45,63,2.31,CN,1698368426
334,yokadouma,3.5167,15.05,19.58,99,76,0.32,CM,1698368499
335,tayshet,55.9342,98.0044,10.55,55,100,7.32,RU,1698368499
336,port-cartier,50.0334,-66.8654,7.12,67,100,2.5,CA,1698368500
337,buka,40.8108,69.1986,14.54,72,100,2.12,UZ,1698368500
338,tiszaluc,48.0333,21.0833,12.74,96,100,2.58,HU,1698368500
339,visby,57.6409,18.296,4.46,93,20,4.12,SE,1698368500
340,horta,38.5333,-28.6333,18.14,65,100,5.73,PT,1698368500
341,kone,-21.0595,164.8658,27.4,66,51,3.2,NC,1698368500
342,ketchikan,55.3422,-131.6461,9.99,55,10,2.07,US,1698368501
343,dahanu,19.9667,72.7333,24.52,46,1,1.68,IN,1698368501
344,vadso,70.0744,29.7487,-1.91,86,100,1.54,NO,1698368501
345,engelskirchen,50.9833,7.4,9.66,74,100,1.29,DE,1698368501
346,egilsstadir,65.2653,-14.3948,1.95,93,75,3.09,IS,1698368501
347,san antonio de pale,-1.4014,5.6325,25.75,87,99,5.98,GQ,1698368469
348,sao felix do xingu,-6.6447,-51.995,27.77,58,100,1.0,BR,1698368444
349,siaya,0.0612,34.2882,18.52,78,86,1.66,KE,1698368502
350,lerwick,60.1545,-1.1494,9.0,71,100,7.37,GB,1698368502
351,mossel bay,-34.1831,22.146,15.96,71,79,2.59,ZA,1698368502
352,misratah,32.3754,15.0925,22.62,76,6,3.64,LY,1698368502
353,soio,-6.1349,12.3689,24.83,86,100,3.99,AO,1698368502
354,saint-philippe,-21.3585,55.7679,22.77,85,17,2.78,RE,1698368502
355,luderitz,-26.6481,15.1594,15.32,82,0,7.2,NA,1698368502
356,caraballeda,10.6112,-66.8522,29.37,89,40,0.51,VE,1698368502
357,sandnessjoen,66.0217,12.6316,-2.71,73,13,3.75,NO,1698368503
358,yigo village,13.5361,144.8886,29.16,86,75,4.63,GU,1698368503
359,tura,25.5198,90.2201,20.47,85,0,1.05,IN,1698368503
360,al qusiyah,27.4402,30.8184,25.15,36,100,3.58,EG,1698368503
361,kayes,14.0,-11.0,27.88,21,64,0.52,ML,1698368503
362,srikakulam,18.3,83.9,23.38,86,15,2.63,IN,1698368503
363,el amria,35.5244,-1.0158,21.02,74,100,7.67,DZ,1698368503
364,ambon,-3.6954,128.1814,31.07,100,40,1.54,ID,1698368504
365,leava,-14.3,-178.1667,26.44,77,98,7.92,WF,1698368504
366,as sulayyil,20.4607,45.5779,22.14,61,100,3.41,SA,1698368504
367,agat village,13.3886,144.6585,30.06,91,100,2.85,GU,1698368504
368,enoch,37.7733,-113.0244,6.75,62,0,0.89,US,1698368504
369,matoury,4.8483,-52.3317,26.98,89,0,3.09,GF,1698368504
370,sinabang,2.4803,96.3801,25.93,86,100,3.53,ID,1698368505
371,la paz,-16.5,-68.15,13.65,60,75,2.57,BO,1698368412
372,abdurahmoni jomi,37.9464,68.8088,11.16,76,81,2.0,TJ,1698368505
373,afaahiti,-17.75,-149.2833,25.93,91,100,0.88,PF,1698368505
374,kosh-agach,50.0,88.6667,1.84,61,100,3.13,RU,1698368505
375,fale old settlement,-9.3852,-171.2468,28.57,77,47,6.61,TK,1698368505
376,elliot lake,46.3834,-82.6331,13.52,99,100,2.53,CA,1698368506
377,tamandare,-8.7597,-35.1047,26.12,75,41,5.09,BR,1698368266
378,akhty,41.4597,47.7312,14.24,61,83,3.06,RU,1698368506
379,enewetak,11.3474,162.3373,28.58,73,100,6.56,MH,1698368506
380,lorengau,-2.0226,147.2712,27.44,80,100,0.8,PG,1698368484
381,la romana,18.4273,-68.9728,25.2,94,40,3.09,DO,1698368424
382,aykhal,66.0,111.5,-16.44,100,100,1.22,RU,1698368507
383,laguna,38.421,-121.4238,19.1,37,0,4.12,US,1698368508
384,barcelos,41.5388,-8.6151,16.03,88,74,4.31,PT,1698368508
385,altai,46.3722,96.2583,2.88,31,79,2.65,MN,1698368508
386,komsomol'skiy,43.9783,46.6985,15.91,91,100,2.26,RU,1698368508
387,puerto carreno,6.189,-67.4859,26.3,76,100,0.54,CO,1698368508
388,bousso,10.4795,16.7117,23.07,69,100,2.14,TD,1698368509
389,ulladulla,-35.35,150.4667,15.43,81,100,6.04,AU,1698368509
390,nicoya,10.1483,-85.452,23.95,93,100,1.3,CR,1698368509
391,malango,-2.9627,119.9001,27.26,40,5,2.17,ID,1698368509
392,callao,-12.0667,-77.15,20.4,73,20,4.63,PE,1698368510
393,tadine,-21.55,167.8833,24.53,89,67,10.0,NC,1698368510
394,kalmunai,7.4167,81.8167,25.42,84,14,1.09,LK,1698368510
395,phek,25.6667,94.5,11.33,99,49,0.43,IN,1698368510
396,es castell,39.8795,4.2854,22.38,78,0,7.72,ES,1698368510
397,santa cruz,-17.8,-63.1667,25.7,94,75,2.57,BO,1698368423
398,malindi,-3.2175,40.1191,25.9,84,74,3.43,KE,1698368511
399,cromer,52.9312,1.2989,6.75,86,100,1.95,GB,1698368511
400,baoshan,46.5586,131.4244,6.42,29,79,3.21,CN,1698368511
401,gainesville,29.6516,-82.3248,22.66,74,20,2.57,US,1698368511
402,brezina,33.0989,1.2608,19.23,24,96,3.81,DZ,1698368511
403,hailar,49.2,119.7,2.26,36,3,2.56,CN,1698368511
404,ouadda,8.0777,22.4007,18.93,98,100,1.52,CF,1698368511
405,zahle,33.8497,35.9042,21.89,44,100,1.66,LB,1698368512
406,iwanai,42.9744,140.5089,16.42,64,96,0.66,JP,1698368512
407,hafar al-batin,28.4328,45.9708,20.32,64,0,1.03,SA,1698368512
408,feldioara,45.8167,25.6,10.33,98,90,1.01,RO,1698368512
409,vikhorevka,56.1201,101.1636,7.77,67,100,3.15,RU,1698368512
410,daru,-9.0763,143.2092,28.64,70,89,3.99,PG,1698368512
411,pangoa,-12.1167,-73.0,21.66,94,100,1.6,PE,1698368512
412,vung tau,10.346,107.0843,27.94,78,94,2.77,VN,1698368512
413,panama city beach,30.1766,-85.8055,22.28,85,3,2.73,US,1698368513
414,meadow lakes,61.6247,-149.6011,5.06,60,0,0.45,US,1698368334
415,chauk,20.8833,94.8167,25.48,81,71,2.2,MM,1698368513
416,gryazovets,58.88,40.2525,-3.78,78,100,3.71,RU,1698368513
417,santiago de cao,-7.9589,-79.2392,19.07,82,75,4.12,PE,1698368513
418,gorontalo,0.5412,123.0595,31.05,46,3,2.23,ID,1698368513
419,balabac,7.9868,117.0645,28.89,73,100,3.76,PH,1698368513
420,west plains,36.7281,-91.8524,19.81,88,100,4.63,US,1698368264
421,sao tome,0.3365,6.7273,25.85,87,71,3.17,ST,1698368514
422,sukumo,32.9333,132.7333,22.57,43,0,1.79,JP,1698368514
423,konarka,19.9,86.1167,22.22,82,40,2.94,IN,1698368514
424,eenhana,-17.4667,16.3333,23.18,47,11,3.15,NA,1698368514
425,siping,43.1633,124.3686,7.82,16,6,1.78,CN,1698368437
426,mildura,-34.2,142.15,20.6,41,0,3.42,AU,1698368514
427,kegalle,7.2532,80.3454,22.51,94,16,1.16,LK,1698368514
428,baiti,13.745,-14.7482,26.78,70,16,5.08,SN,1698368514
429,tionk essil,12.7856,-16.5217,28.98,84,27,2.56,SN,1698368515
430,wynyard,-41.0,145.7167,11.78,53,7,2.94,AU,1698368515
431,vorkuta,67.5,64.0,-9.18,93,100,4.1,RU,1698368515
432,rye,40.9807,-73.6837,21.7,77,0,0.0,US,1698368515
433,chegdomyn,51.1167,133.0167,-0.51,56,14,2.39,RU,1698368515
434,indramayu,-6.3264,108.32,28.71,65,37,3.59,ID,1698368515
435,khovd,48.0056,91.6419,5.29,30,41,4.49,MN,1698368516
436,vila velha,-20.3297,-40.2925,25.97,89,75,1.03,BR,1698368428
437,suntar,62.1444,117.6319,-2.57,97,96,1.3,RU,1698368516
438,grabovo,53.3875,45.064,0.51,53,100,5.74,RU,1698368516
439,latakia,35.5148,35.7768,20.1,46,100,3.1,SY,1698368516
440,margate,51.3813,1.3862,10.39,95,100,0.45,GB,1698368378
441,pangai,-19.8,-174.35,27.06,65,75,9.77,TO,1698368516
442,murghob,38.1702,73.9667,-1.82,66,57,1.53,TJ,1698368517
443,neede,52.1342,6.6139,10.56,97,100,2.04,NL,1698368517
444,korla,41.7597,86.1469,10.63,36,100,1.88,CN,1698368517
445,nahrin,36.0649,69.1334,13.04,45,0,2.52,AF,1698368517
446,mananjary,-21.2167,48.3333,22.81,93,81,2.85,MG,1698368517
447,brzesko,49.9691,20.6061,12.12,86,100,0.82,PL,1698368337
448,umm kaddadah,13.6017,26.6876,28.83,38,100,4.39,SD,1698368517
449,tuba city,36.135,-111.2399,17.43,37,4,2.68,US,1698368518
450,fort st. john,56.2499,-120.8529,-4.06,74,75,3.09,CA,1698368415
451,puerto san jose,13.9256,-90.8244,26.73,82,100,0.66,GT,1698368518
452,nova vicosa,-17.8919,-39.3719,24.82,91,100,6.63,BR,1698368518
453,hilo,19.7297,-155.09,26.72,88,40,3.51,US,1698368518
454,huzhou,30.8703,120.0933,20.86,72,98,3.17,CN,1698368518
455,marka,1.7159,44.7717,26.04,85,100,3.96,SO,1698368519
456,faaa,-17.55,-149.6,26.98,69,75,4.12,PF,1698368519
457,panaba,21.2833,-88.2667,25.85,69,57,5.59,MX,1698368519
458,aswan,24.0934,32.907,29.61,26,0,2.06,EG,1698368489
459,varzea da palma,-17.5981,-44.7308,22.48,91,100,1.07,BR,1698368519
460,tabou,4.423,-7.3528,25.2,91,41,3.28,CI,1698368520
461,domoni,-12.2569,44.5319,25.29,87,13,2.02,KM,1698368520
462,west kelowna,49.8625,-119.5833,4.14,41,75,2.57,CA,1698368253
463,bignona,12.8103,-16.2264,27.02,88,28,2.1,SN,1698368520
464,arraial do cabo,-22.9661,-42.0278,22.92,88,75,5.14,BR,1698368520
465,waingapu,-9.6567,120.2641,30.01,55,0,2.63,ID,1698368520
466,salym,60.0625,71.4789,-5.45,88,100,5.1,RU,1698368521
467,naracoorte,-36.9579,140.7383,18.49,28,45,3.27,AU,1698368521
468,dom pedrito,-30.9828,-54.6731,12.47,81,0,3.07,BR,1698368521
469,kyzyl-kyya,40.2568,72.1279,8.4,55,100,0.42,KG,1698368521
470,kayangel,8.0823,134.7173,28.23,72,81,0.78,PW,1698368522
471,wainwright,52.839,-110.8572,-6.16,76,100,3.02,CA,1698368522
472,hermanus,-34.4187,19.2345,15.92,74,100,4.8,ZA,1698368522
473,carauari,-4.8828,-66.8958,23.17,93,100,0.79,BR,1698368522
474,bingerville,5.3584,-3.8869,26.52,83,20,3.6,CI,1698368523
475,haiku-pauwela,20.9219,-156.3051,28.98,64,78,1.34,US,1698368523
476,poinciana,28.1403,-81.4584,25.09,82,100,2.57,US,1698368524
477,san carlos,9.6612,-68.5827,24.18,96,96,1.07,VE,1698368524
478,gracemere,-23.4333,150.45,25.95,11,0,5.66,AU,1698368524
479,linxia chengguanzhen,35.6003,103.2064,10.47,61,37,0.92,CN,1698368524
480,saint-pierre-du-mont,43.8845,-0.5219,13.21,95,13,4.12,FR,1698368525
481,kurmuk,10.55,34.2833,22.71,78,100,0.79,SD,1698368525
482,walvis bay,-22.9575,14.5053,16.53,82,98,3.6,NA,1698368525
483,whangarei,-35.7317,174.3239,12.39,91,100,3.57,NZ,1698368525
484,burnie,-41.0667,145.9167,15.81,50,8,2.78,AU,1698368526
485,manjeshvar,12.7,74.8833,25.66,85,14,1.8,IN,1698368526
486,jinghong,21.991,100.7341,23.76,75,15,0.37,CN,1698368526
487,kamaishi,39.2667,141.8833,17.96,57,49,1.18,JP,1698368429
488,harper,4.375,-7.7169,25.14,91,39,3.54,LR,1698368527
489,bisert',56.8617,59.0523,-8.61,95,66,3.08,RU,1698368527
490,karasburg,-28.0167,18.75,17.19,23,3,3.34,NA,1698368527
491,othis,49.0739,2.675,12.42,100,75,5.14,FR,1698368527
492,abadeh,31.1608,52.6506,9.29,68,11,1.18,IR,1698368527
493,bartica,6.4,-58.6167,27.18,94,85,0.94,GY,1698368528
494,new norfolk,-42.7826,147.0587,13.29,37,22,1.12,AU,1698368528
495,yemetsk,63.4721,41.7941,-4.37,90,93,1.58,RU,1698368528
496,vallenar,-28.5708,-70.7581,10.88,72,0,1.46,CL,1698368528
497,saint-pierre,-21.3393,55.4781,22.82,68,0,2.57,RE,1698368529
498,kresek,-6.1314,106.3797,31.73,71,100,0.92,ID,1698368529
499,udaipur,24.5712,73.6918,15.5,29,4,1.74,IN,1698368271
500,charters towers,-20.1,146.2667,30.22,26,0,6.09,AU,1698368529
501,bochum,51.4833,7.2167,10.76,84,100,1.51,DE,1698368529
502,bei'an,24.5399,109.533,22.77,78,81,2.98,CN,1698368530
503,mendi,-6.1761,143.6513,18.98,72,72,1.79,PG,1698368530
504,vuktyl,63.8567,57.3094,-6.61,88,47,2.24,RU,1698368530
505,la ronge,55.1001,-105.2842,-2.86,68,100,4.63,CA,1698368530
506,hasparren,43.3838,-1.305,15.04,72,0,2.57,FR,1698368530
507,new plymouth,-39.0667,174.0833,10.73,69,100,12.51,NZ,1698368461
508,mejit,10.2753,170.8646,28.48,75,92,4.74,MH,1698368531
509,nagarote,12.2659,-86.5647,29.82,93,100,1.97,NI,1698368531
510,dryden,49.7833,-92.7503,0.16,93,100,6.69,CA,1698368456
511,koraput,18.8167,82.7167,17.23,87,7,0.97,IN,1698368532
512,tsiombe,-25.3,45.4833,17.96,75,38,2.05,MG,1698368532
513,agropoli,40.3469,14.9966,21.16,88,100,4.3,IT,1698368532
514,flying fish cove,-10.4217,105.6791,26.82,78,75,4.63,CX,1698368532
515,calama,-22.4667,-68.9333,17.27,20,0,7.72,CL,1698368047
516,laojunmiao,39.8333,97.7333,7.84,20,0,1.26,CN,1698368532
517,inverness,57.4791,-4.224,11.0,88,75,4.63,GB,1698368467
518,darwin,-12.4611,130.8418,32.75,62,20,1.54,AU,1698368533
519,hassi messaoud,31.6804,6.0729,20.92,35,0,1.54,DZ,1698368533
520,vertientes,21.2594,-78.1464,22.68,73,0,4.16,CU,1698368533
521,garissa,-0.4536,39.6401,25.35,78,95,5.12,KE,1698368534
522,kirkwall,58.9848,-2.9587,10.03,87,100,9.26,GB,1698368534
523,yemva,62.59,50.8594,-2.03,82,100,3.22,RU,1698368534
524,chibougamau,49.9168,-74.3659,1.79,100,100,3.09,CA,1698368534
525,trail,49.0998,-117.7022,4.27,75,100,0.74,CA,1698368534
526,beira,-19.8436,34.8389,21.05,94,20,1.03,MZ,1698368534
527,saiha,22.4833,92.9667,19.61,87,14,1.02,IN,1698368534
528,kill devil hills,36.0307,-75.676,18.88,91,0,0.0,US,1698368535
529,tocache,-8.1842,-76.5125,23.54,89,100,0.21,PE,1698368535
530,jumla,29.2747,82.1838,5.8,77,0,1.83,NP,1698368535
531,bernalillo,35.05,-106.6673,20.29,34,20,4.12,US,1698368535
532,"laikit, laikit ii (dimembe)",1.4792,124.9735,29.47,62,20,1.03,ID,1698368535
533,tutoia,-2.7619,-42.2744,26.04,77,21,5.56,BR,1698368536
534,krasnyy chikoy,50.3643,108.7512,2.54,64,100,1.48,RU,1698368536
535,montepuez,-13.1256,38.9997,23.46,72,100,2.36,MZ,1698368536
536,san antonio,29.4241,-98.4936,26.61,90,20,3.6,US,1698368536
537,gudari,19.35,83.7833,19.68,79,0,1.13,IN,1698368536
538,qamdo,31.1667,97.2333,-2.98,68,81,0.57,CN,1698368537
539,queenstown,-31.8976,26.8753,18.22,30,6,0.92,ZA,1698368537
540,suncho corral,-27.9336,-63.4294,20.03,77,100,1.37,AR,1698368537
541,namibe,-15.1961,12.1522,19.61,80,100,1.63,AO,1698368537
542,moranbah,-22.0016,148.0466,27.35,14,0,6.26,AU,1698368537
543,tindouf,27.6711,-8.1474,21.25,32,0,3.09,DZ,1698368538
544,palikir - national government center,6.9248,158.1611,28.02,71,91,1.38,FM,1698368538
545,uribia,11.7139,-72.266,27.94,75,99,3.01,CO,1698368538
546,doctor juan leon mallorquin,-25.4,-55.2667,22.85,83,30,1.73,PY,1698368538
547,puerto deseado,-47.7503,-65.8938,7.26,64,23,7.95,AR,1698368539
548,sidney,-33.8679,151.2073,17.01,75,75,9.77,AU,1698368383
549,gebeit,21.0667,36.3167,24.54,61,21,2.53,SD,1698368539
550,padang,-0.9492,100.3543,24.03,83,36,0.91,ID,1698368477
551,howrah,22.5892,88.3103,25.0,88,40,2.57,IN,1698368539
552,jilib,0.4883,42.7854,24.51,94,100,1.6,SO,1698368540
553,bermejo,-32.8833,-68.8,21.95,46,40,1.03,AR,1698368540
554,ak'ordat,15.5486,37.8867,27.77,54,100,1.88,ER,1698368540
555,orchard homes,46.8633,-114.0484,-4.11,79,100,3.13,US,1698368540
556,luchegorsk,46.4764,134.2569,6.14,50,11,1.97,RU,1698368541
557,puerto lempira,15.2667,-83.7667,28.67,78,7,7.46,HN,1698368429
558,ballina,-28.8667,153.5667,16.55,90,100,10.42,AU,1698368541
559,baturaja,-4.1333,104.1667,28.52,63,92,1.02,ID,1698368541
560,gadzhiyevo,69.2551,33.3362,-3.86,94,100,3.04,RU,1698368541
561,monrovia,6.3005,-10.7969,26.22,83,100,2.93,LR,1698368542
562,kuytun,54.3419,101.5036,2.93,75,100,2.23,RU,1698368542
563,cidreira,-30.1811,-50.2056,15.77,73,0,3.02,BR,1698368542
564,mitu,1.1983,-70.1733,25.85,80,100,1.35,CO,1698368542
565,general villegas,-35.0328,-63.0125,15.63,94,100,4.71,AR,1698368542
566,camana,-16.6228,-72.7111,18.8,88,95,2.61,PE,1698368543
567,viedma,-40.8135,-62.9967,11.56,55,18,4.33,AR,1698368543
568,semirom,31.4167,51.5667,6.0,73,0,1.08,IR,1698368543
569,villa bruzual,9.3328,-69.1208,23.43,92,91,1.02,VE,1698368543
570,erdenet,49.0333,104.0833,4.36,49,13,2.18,MN,1698368544
571,mar del plata,-38.0023,-57.5575,20.01,42,0,4.12,AR,1698368343
572,new kingman-butler,35.265,-114.0323,22.51,37,0,3.6,US,1698368544
573,ribeira brava,32.65,-17.0667,22.62,81,100,2.02,PT,1698368544
574,odda,60.0691,6.5457,2.65,81,22,2.15,NO,1698368544
575,veinticinco de mayo,-35.4323,-60.1727,16.1,80,9,0.45,AR,1698368544
576,tereze,43.9361,42.4434,12.1,65,100,2.87,RU,1698368545
577,sabinanigo,42.5192,-0.3661,8.4,93,1,2.49,ES,1698368545
578,kavaratti,10.5669,72.642,28.26,69,5,2.26,IN,1698368545
579,ceelbuur,4.685,46.6176,25.75,82,91,3.4,SO,1698368545
580,medzilaborce,49.2719,21.9007,12.3,93,96,3.09,SK,1698368546
581,gamboula,4.1178,15.1393,19.95,98,97,0.75,CF,1698368546
582,port huron,42.9709,-82.4249,19.99,72,75,5.14,US,1698368481
583,la sarre,48.8002,-79.1996,3.59,96,100,5.08,CA,1698368546
584,gizo,-8.103,156.8419,26.32,82,100,1.24,SB,1698368546
585,mkushi,-13.6202,29.3939,20.51,73,3,2.71,ZM,1698368547
586,champerico,14.3,-91.9167,26.3,86,100,2.63,GT,1698368436
587,yaren,-0.5472,166.916,28.76,72,1,2.79,NR,1698368547
588,marquette,46.5333,-87.6335,8.79,99,100,0.89,US,1698368547
589,shwebo,22.5667,95.7,23.28,90,1,1.93,MM,1698368548
